$GPRMC,091850.000,A,2308.6871,N,11317.7204,E,1.88,237.33,010316,,,D*69
$GPRMC,091851.000,A,2308.6868,N,11317.7202,E,1.18,237.33,010316,,,D*6F
$GPRMC,091852.000,A,2308.6867,N,11317.7201,E,0.04,237.33,010316,,,D*6C
$GPRMC,091853.000,A,2308.6866,N,11317.7201,E,0.02,237.33,010316,,,D*6A
$GPRMC,091854.000,A,2308.6866,N,11317.7201,E,0.04,237.33,010316,,,D*6B
$GPRMC,091855.000,A,2308.6866,N,11317.7200,E,0.00,237.33,010316,,,D*6F
$GPRMC,091856.000,A,2308.6866,N,11317.7200,E,0.00,237.33,010316,,,D*6C
$GPRMC,091857.000,A,2308.6866,N,11317.7200,E,0.00,237.33,010316,,,D*6D
$GPRMC,091858.000,A,2308.6866,N,11317.7200,E,0.00,237.33,010316,,,D*62
$GPRMC,091859.000,A,2308.6866,N,11317.7200,E,0.00,237.33,010316,,,D*63
$GPRMC,091900.000,A,2308.6866,N,11317.7200,E,0.00,237.33,010316,,,D*6E
$GPRMC,091901.000,A,2308.6866,N,11317.7200,E,0.00,237.33,010316,,,D*6F
$GPRMC,091902.000,A,2308.6866,N,11317.7200,E,0.00,237.33,010316,,,D*6C
$GPRMC,091903.000,A,2308.6866,N,11317.7200,E,0.00,237.33,010316,,,D*6D
$GPRMC,091904.000,A,2308.6866,N,11317.7200,E,0.00,237.33,010316,,,D*6A
$GPRMC,091905.000,A,2308.6866,N,11317.7200,E,0.00,237.33,010316,,,D*6B
$GPRMC,091906.000,A,2308.6866,N,11317.7200,E,0.00,237.33,010316,,,D*68
$GPRMC,091907.000,A,2308.6866,N,11317.7200,E,0.00,237.33,010316,,,D*69
$GPRMC,091908.000,A,2308.6866,N,11317.7200,E,0.00,237.33,010316,,,D*66
$GPRMC,091909.000,A,2308.6866,N,11317.7200,E,0.00,237.33,010316,,,D*67
$GPRMC,091910.000,A,2308.6866,N,11317.7200,E,0.00,237.33,010316,,,D*6F
$GPRMC,091911.000,A,2308.6866,N,11317.7200,E,0.00,237.33,010316,,,D*6E
$GPRMC,091912.000,A,2308.6865,N,11317.7201,E,0.00,237.33,010316,,,D*6F
$GPRMC,091913.000,A,2308.6865,N,11317.7201,E,0.00,237.33,010316,,,D*6E
$GPRMC,091914.000,A,2308.6865,N,11317.7201,E,0.00,237.33,010316,,,D*69
$GPRMC,091915.000,A,2308.6865,N,11317.7201,E,0.00,237.33,010316,,,D*68
$GPRMC,091916.000,A,2308.6865,N,11317.7201,E,0.00,237.33,010316,,,D*6B
$GPRMC,091917.000,A,2308.6865,N,11317.7201,E,0.00,237.33,010316,,,D*6A
$GPRMC,091918.000,A,2308.6865,N,11317.7201,E,0.00,237.33,010316,,,D*65
$GPRMC,091919.000,A,2308.6865,N,11317.7201,E,0.00,237.33,010316,,,D*64
$GPRMC,091920.000,A,2308.6865,N,11317.7201,E,0.00,237.33,010316,,,D*6E
$GPRMC,091921.000,A,2308.6865,N,11317.7201,E,0.00,237.33,010316,,,D*6F
$GPRMC,091922.000,A,2308.6865,N,11317.7201,E,0.00,237.33,010316,,,D*6C
$GPRMC,091923.000,A,2308.6865,N,11317.7201,E,0.00,237.33,010316,,,D*6D
$GPRMC,091924.000,A,2308.6865,N,11317.7201,E,0.00,237.33,010316,,,D*6A
$GPRMC,091925.000,A,2308.6865,N,11317.7201,E,0.00,237.33,010316,,,D*6B
$GPRMC,091926.000,A,2308.6865,N,11317.7201,E,0.00,237.33,010316,,,D*68
$GPRMC,091927.000,A,2308.6865,N,11317.7201,E,0.00,237.33,010316,,,D*69
$GPRMC,091928.000,A,2308.6865,N,11317.7201,E,0.00,237.33,010316,,,D*66
$GPRMC,091929.000,A,2308.6865,N,11317.7201,E,0.00,237.33,010316,,,D*67
$GPRMC,091930.000,A,2308.6865,N,11317.7201,E,0.00,237.33,010316,,,D*6F
$GPRMC,091931.000,A,2308.6865,N,11317.7201,E,0.00,237.33,010316,,,D*6E
$GPRMC,091932.000,A,2308.6865,N,11317.7201,E,0.00,237.33,010316,,,D*6D
$GPRMC,091933.000,A,2308.6865,N,11317.7201,E,0.00,237.33,010316,,,D*6C
$GPRMC,091934.000,A,2308.6865,N,11317.7201,E,0.00,237.33,010316,,,D*6B
$GPRMC,091935.000,A,2308.6865,N,11317.7201,E,0.00,237.33,010316,,,D*6A
$GPRMC,091936.000,A,2308.6865,N,11317.7201,E,0.00,237.33,010316,,,D*69
$GPRMC,091937.000,A,2308.6865,N,11317.7201,E,0.00,237.33,010316,,,D*68
$GPRMC,091938.000,A,2308.6865,N,11317.7201,E,0.00,237.33,010316,,,D*67
$GPRMC,091939.000,A,2308.6865,N,11317.7201,E,0.00,237.33,010316,,,D*66
$GPRMC,091940.000,A,2308.6865,N,11317.7201,E,0.00,237.33,010316,,,D*68
$GPRMC,091941.000,A,2308.6865,N,11317.7201,E,0.00,237.33,010316,,,D*69
$GPRMC,091942.000,A,2308.6865,N,11317.7201,E,0.00,237.33,010316,,,D*6A
$GPRMC,091943.000,A,2308.6865,N,11317.7201,E,0.00,237.33,010316,,,D*6B
$GPRMC,091944.000,A,2308.6865,N,11317.7201,E,0.00,237.33,010316,,,D*6C
$GPRMC,091945.000,A,2308.6865,N,11317.7201,E,0.00,237.33,010316,,,D*6D
$GPRMC,091946.000,A,2308.6865,N,11317.7201,E,0.00,237.33,010316,,,D*6E
$GPRMC,091947.000,A,2308.6865,N,11317.7201,E,0.00,237.33,010316,,,D*6F
$GPRMC,091948.000,A,2308.6865,N,11317.7201,E,0.00,237.33,010316,,,D*60
$GPRMC,091949.000,A,2308.6865,N,11317.7201,E,0.00,237.33,010316,,,D*61
$GPRMC,091950.000,A,2308.6865,N,11317.7201,E,0.00,237.33,010316,,,D*69
$GPRMC,091951.000,A,2308.6865,N,11317.7201,E,0.00,237.33,010316,,,D*68
$GPRMC,091952.000,A,2308.6865,N,11317.7201,E,0.02,237.33,010316,,,D*69
$GPRMC,091953.000,A,2308.6865,N,11317.7201,E,0.00,237.33,010316,,,D*6A
$GPRMC,091954.000,A,2308.6865,N,11317.7201,E,0.00,237.33,010316,,,D*6D
$GPRMC,091955.000,A,2308.6865,N,11317.7201,E,0.00,237.33,010316,,,D*6C
$GPRMC,091956.000,A,2308.6865,N,11317.7201,E,0.01,237.33,010316,,,D*6E
$GPRMC,091957.000,A,2308.6865,N,11317.7201,E,0.01,237.33,010316,,,D*6F
$GPRMC,091958.000,A,2308.6865,N,11317.7201,E,0.01,237.33,010316,,,D*60
$GPRMC,091959.000,A,2308.6865,N,11317.7201,E,0.01,237.33,010316,,,D*61
$GPRMC,092000.000,A,2308.6865,N,11317.7201,E,0.02,237.33,010316,,,D*64
$GPRMC,092001.000,A,2308.6865,N,11317.7201,E,0.02,237.33,010316,,,D*65
$GPRMC,092002.000,A,2308.6865,N,11317.7201,E,0.02,237.33,010316,,,D*66
$GPRMC,092003.000,A,2308.6865,N,11317.7201,E,0.02,237.33,010316,,,D*67
$GPRMC,092004.000,A,2308.6865,N,11317.7201,E,0.01,237.33,010316,,,D*63
$GPRMC,092005.000,A,2308.6865,N,11317.7201,E,0.01,237.33,010316,,,D*62
$GPRMC,092006.000,A,2308.6865,N,11317.7201,E,0.02,237.33,010316,,,D*62
$GPRMC,092007.000,A,2308.6865,N,11317.7201,E,0.01,237.33,010316,,,D*60
$GPRMC,092008.000,A,2308.6865,N,11317.7201,E,0.01,237.33,010316,,,D*6F
$GPRMC,092009.000,A,2308.6865,N,11317.7201,E,0.00,237.33,010316,,,D*6F
$GPRMC,092010.000,A,2308.6865,N,11317.7201,E,0.00,237.33,010316,,,D*67
$GPRMC,092011.000,A,2308.6865,N,11317.7201,E,0.03,237.33,010316,,,D*65
$GPRMC,092012.000,A,2308.6865,N,11317.7201,E,0.02,237.33,010316,,,D*67
$GPRMC,092013.000,A,2308.6865,N,11317.7201,E,0.02,237.33,010316,,,D*66
$GPRMC,092014.000,A,2308.6865,N,11317.7201,E,0.01,237.33,010316,,,D*62
$GPRMC,092015.000,A,2308.6865,N,11317.7201,E,0.02,237.33,010316,,,D*60
$GPRMC,092016.000,A,2308.6865,N,11317.7201,E,0.01,237.33,010316,,,D*60
$GPRMC,092017.000,A,2308.6865,N,11317.7201,E,0.01,237.33,010316,,,D*61
$GPRMC,092018.000,A,2308.6865,N,11317.7201,E,0.01,237.33,010316,,,D*6E
$GPRMC,092019.000,A,2308.6865,N,11317.7201,E,0.01,237.33,010316,,,D*6F
$GPRMC,092020.000,A,2308.6865,N,11317.7201,E,0.02,237.33,010316,,,D*66
$GPRMC,092021.000,A,2308.6865,N,11317.7201,E,0.02,237.33,010316,,,D*67
$GPRMC,092022.000,A,2308.6865,N,11317.7201,E,0.00,237.33,010316,,,D*66
$GPRMC,092023.000,A,2308.6865,N,11317.7201,E,0.00,237.33,010316,,,D*67
$GPRMC,092024.000,A,2308.6865,N,11317.7201,E,0.00,237.33,010316,,,D*60
$GPRMC,092025.000,A,2308.6865,N,11317.7201,E,0.00,237.33,010316,,,D*61
$GPRMC,092026.000,A,2308.6865,N,11317.7201,E,0.00,237.33,010316,,,D*62
$GPRMC,092027.000,A,2308.6865,N,11317.7201,E,0.00,237.33,010316,,,D*63
$GPRMC,092028.000,A,2308.6865,N,11317.7201,E,0.00,237.33,010316,,,D*6C
$GPRMC,092029.000,A,2308.6865,N,11317.7201,E,0.00,237.33,010316,,,D*6D
$GPRMC,092030.000,A,2308.6865,N,11317.7201,E,0.00,237.33,010316,,,D*65
$GPRMC,092031.000,A,2308.6865,N,11317.7201,E,0.02,237.33,010316,,,D*66
$GPRMC,092032.000,A,2308.6865,N,11317.7201,E,0.01,237.33,010316,,,D*66
$GPRMC,092033.000,A,2308.6865,N,11317.7201,E,0.02,237.33,010316,,,D*64
$GPRMC,092034.000,A,2308.6865,N,11317.7201,E,0.00,237.33,010316,,,D*61
$GPRMC,092035.000,A,2308.6865,N,11317.7201,E,0.00,237.33,010316,,,D*60
$GPRMC,092036.000,A,2308.6865,N,11317.7201,E,0.00,237.33,010316,,,D*63
$GPRMC,092037.000,A,2308.6865,N,11317.7201,E,0.00,237.33,010316,,,D*62
$GPRMC,092038.000,A,2308.6865,N,11317.7201,E,0.00,237.33,010316,,,D*6D
$GPRMC,092039.000,A,2308.6865,N,11317.7201,E,0.00,237.33,010316,,,D*6C
$GPRMC,092040.000,A,2308.6865,N,11317.7201,E,0.00,237.33,010316,,,D*62
$GPRMC,092041.000,A,2308.6865,N,11317.7201,E,0.00,237.33,010316,,,D*63
$GPRMC,092042.000,A,2308.6865,N,11317.7201,E,0.00,237.33,010316,,,D*60
$GPRMC,092043.000,A,2308.6865,N,11317.7201,E,0.00,237.33,010316,,,D*61
$GPRMC,092044.000,A,2308.6865,N,11317.7201,E,0.00,237.33,010316,,,D*66
$GPRMC,092045.000,A,2308.6865,N,11317.7201,E,0.00,237.33,010316,,,D*67
$GPRMC,092046.000,A,2308.6865,N,11317.7201,E,0.00,237.33,010316,,,D*64
$GPRMC,092047.000,A,2308.6865,N,11317.7201,E,0.00,237.33,010316,,,D*65
$GPRMC,092048.000,A,2308.6865,N,11317.7201,E,0.00,237.33,010316,,,D*6A
$GPRMC,092049.000,A,2308.6865,N,11317.7201,E,0.00,237.33,010316,,,D*6B
$GPRMC,092050.000,A,2308.6865,N,11317.7201,E,0.00,237.33,010316,,,D*63
$GPRMC,092051.000,A,2308.6865,N,11317.7201,E,0.00,237.33,010316,,,D*62
$GPRMC,092052.000,A,2308.6865,N,11317.7201,E,0.00,237.33,010316,,,D*61
$GPRMC,092053.000,A,2308.6865,N,11317.7201,E,0.00,237.33,010316,,,D*60
$GPRMC,092054.000,A,2308.6865,N,11317.7201,E,0.00,237.33,010316,,,D*67
$GPRMC,092055.000,A,2308.6865,N,11317.7201,E,0.00,237.33,010316,,,D*66
$GPRMC,092056.000,A,2308.6865,N,11317.7201,E,0.00,237.33,010316,,,D*65
$GPRMC,092057.000,A,2308.6865,N,11317.7201,E,0.00,237.33,010316,,,D*64
$GPRMC,092058.000,A,2308.6865,N,11317.7201,E,0.00,237.33,010316,,,D*6B
$GPRMC,092059.000,A,2308.6865,N,11317.7201,E,0.00,237.33,010316,,,D*6A
$GPRMC,092100.000,A,2308.6865,N,11317.7201,E,0.00,237.33,010316,,,D*67
$GPRMC,092101.000,A,2308.6865,N,11317.7201,E,0.00,237.33,010316,,,D*66
$GPRMC,092102.000,A,2308.6865,N,11317.7201,E,0.00,237.33,010316,,,D*65
$GPRMC,092103.000,A,2308.6865,N,11317.7201,E,0.00,237.33,010316,,,D*64
$GPRMC,092104.000,A,2308.6865,N,11317.7201,E,0.00,237.33,010316,,,D*63
$GPRMC,092105.000,A,2308.6865,N,11317.7201,E,0.00,237.33,010316,,,D*62
$GPRMC,092106.000,A,2308.6865,N,11317.7201,E,0.00,237.33,010316,,,D*61
$GPRMC,092107.000,A,2308.6865,N,11317.7201,E,0.00,237.33,010316,,,D*60
$GPRMC,092108.000,A,2308.6865,N,11317.7201,E,0.00,237.33,010316,,,D*6F
$GPRMC,092109.000,A,2308.6865,N,11317.7201,E,0.00,237.33,010316,,,D*6E
$GPRMC,092110.000,A,2308.6865,N,11317.7201,E,0.00,237.33,010316,,,D*66
$GPRMC,092111.000,A,2308.6865,N,11317.7201,E,0.00,237.33,010316,,,D*67
$GPRMC,092112.000,A,2308.6865,N,11317.7201,E,0.00,237.33,010316,,,D*64
$GPRMC,092113.000,A,2308.6865,N,11317.7201,E,0.02,237.33,010316,,,D*67
$GPRMC,092114.000,A,2308.6865,N,11317.7201,E,0.02,237.33,010316,,,D*60
$GPRMC,092115.000,A,2308.6865,N,11317.7201,E,0.00,237.33,010316,,,D*63
$GPRMC,092116.000,A,2308.6865,N,11317.7201,E,0.00,237.33,010316,,,D*60
$GPRMC,092117.000,A,2308.6865,N,11317.7201,E,0.00,237.33,010316,,,D*61
$GPRMC,092118.000,A,2308.6865,N,11317.7201,E,0.00,237.33,010316,,,D*6E
$GPRMC,092119.000,A,2308.6865,N,11317.7201,E,0.00,237.33,010316,,,D*6F
$GPRMC,092120.000,A,2308.6865,N,11317.7201,E,0.00,237.33,010316,,,D*65
$GPRMC,092121.000,A,2308.6865,N,11317.7201,E,0.00,237.33,010316,,,D*64
$GPRMC,092122.000,A,2308.6865,N,11317.7201,E,0.00,237.33,010316,,,D*67
$GPRMC,092123.000,A,2308.6865,N,11317.7201,E,0.00,237.33,010316,,,D*66
$GPRMC,092124.000,A,2308.6865,N,11317.7201,E,0.00,237.33,010316,,,D*61
$GPRMC,092125.000,A,2308.6865,N,11317.7201,E,0.00,237.33,010316,,,D*60
$GPRMC,092126.000,A,2308.6865,N,11317.7201,E,0.00,237.33,010316,,,D*63
$GPRMC,092127.000,A,2308.6865,N,11317.7201,E,0.00,237.33,010316,,,D*62
$GPRMC,092128.000,A,2308.6865,N,11317.7201,E,0.00,237.33,010316,,,D*6D
$GPRMC,092129.000,A,2308.6865,N,11317.7201,E,0.00,237.33,010316,,,D*6C
$GPRMC,092130.000,A,2308.6865,N,11317.7201,E,0.00,237.33,010316,,,D*64
$GPRMC,092131.000,A,2308.6865,N,11317.7201,E,0.00,237.33,010316,,,D*65
$GPRMC,092132.000,A,2308.6865,N,11317.7201,E,0.00,237.33,010316,,,D*66
$GPRMC,092133.000,A,2308.6865,N,11317.7201,E,0.00,237.33,010316,,,D*67
$GPRMC,092134.000,A,2308.6865,N,11317.7201,E,0.00,237.33,010316,,,D*60
$GPRMC,092135.000,A,2308.6865,N,11317.7201,E,0.00,237.33,010316,,,D*61
$GPRMC,092136.000,A,2308.6865,N,11317.7201,E,0.00,237.33,010316,,,D*62
$GPRMC,092137.000,A,2308.6865,N,11317.7201,E,0.00,237.33,010316,,,D*63
$GPRMC,092138.000,A,2308.6865,N,11317.7201,E,0.00,237.33,010316,,,D*6C
$GPRMC,092139.000,A,2308.6865,N,11317.7201,E,0.00,237.33,010316,,,D*6D
$GPRMC,092140.000,A,2308.6865,N,11317.7201,E,0.00,237.33,010316,,,D*63
$GPRMC,092141.000,A,2308.6865,N,11317.7201,E,0.00,237.33,010316,,,D*62
$GPRMC,092142.000,A,2308.6865,N,11317.7201,E,0.00,237.33,010316,,,D*61
$GPRMC,092143.000,A,2308.6865,N,11317.7201,E,0.00,237.33,010316,,,D*60
$GPRMC,092144.000,A,2308.6865,N,11317.7201,E,0.00,237.33,010316,,,D*67
$GPRMC,092145.000,A,2308.6865,N,11317.7201,E,0.00,237.33,010316,,,D*66
$GPRMC,092146.000,A,2308.6865,N,11317.7201,E,0.00,237.33,010316,,,D*65
$GPRMC,092147.000,A,2308.6865,N,11317.7201,E,0.00,237.33,010316,,,D*64
$GPRMC,092148.000,A,2308.6865,N,11317.7201,E,0.00,237.33,010316,,,D*6B
$GPRMC,092149.000,A,2308.6865,N,11317.7201,E,0.00,237.33,010316,,,D*6A
$GPRMC,092150.000,A,2308.6865,N,11317.7201,E,0.00,237.33,010316,,,D*62
$GPRMC,092151.000,A,2308.6865,N,11317.7201,E,0.00,237.33,010316,,,D*63
$GPRMC,092152.000,A,2308.6865,N,11317.7201,E,0.00,237.33,010316,,,D*60
$GPRMC,092153.000,A,2308.6865,N,11317.7201,E,0.00,237.33,010316,,,D*61
$GPRMC,092154.000,A,2308.6865,N,11317.7201,E,0.00,237.33,010316,,,D*66
$GPRMC,092155.000,A,2308.6865,N,11317.7201,E,0.00,237.33,010316,,,D*67
$GPRMC,092156.000,A,2308.6865,N,11317.7201,E,0.00,237.33,010316,,,D*64
$GPRMC,092157.000,A,2308.6865,N,11317.7201,E,0.00,237.33,010316,,,D*65
$GPRMC,092158.000,A,2308.6865,N,11317.7201,E,0.00,237.33,010316,,,D*6A
$GPRMC,092159.000,A,2308.6865,N,11317.7201,E,0.00,237.33,010316,,,D*6B
$GPRMC,092200.000,A,2308.6865,N,11317.7201,E,0.00,237.33,010316,,,D*64
$GPRMC,092201.000,A,2308.6865,N,11317.7201,E,0.00,237.33,010316,,,D*65
$GPRMC,092202.000,A,2308.6865,N,11317.7201,E,0.00,237.33,010316,,,D*66
$GPRMC,092203.000,A,2308.6865,N,11317.7201,E,0.00,237.33,010316,,,D*67
$GPRMC,092204.000,A,2308.6865,N,11317.7201,E,0.00,237.33,010316,,,D*60
$GPRMC,092205.000,A,2308.6865,N,11317.7201,E,0.00,237.33,010316,,,D*61
$GPRMC,092206.000,A,2308.6865,N,11317.7201,E,0.00,237.33,010316,,,D*62
$GPRMC,092207.000,A,2308.6865,N,11317.7201,E,0.00,237.33,010316,,,D*63
$GPRMC,092208.000,A,2308.6865,N,11317.7201,E,0.00,237.33,010316,,,D*6C
$GPRMC,092209.000,A,2308.6865,N,11317.7201,E,0.00,237.33,010316,,,D*6D
$GPRMC,092210.000,A,2308.6865,N,11317.7201,E,0.00,237.33,010316,,,D*65
$GPRMC,092211.000,A,2308.6865,N,11317.7201,E,0.00,237.33,010316,,,D*64
$GPRMC,092212.000,A,2308.6865,N,11317.7201,E,0.00,237.33,010316,,,D*67
$GPRMC,092213.000,A,2308.6865,N,11317.7201,E,0.00,237.33,010316,,,D*66
$GPRMC,092214.000,A,2308.6865,N,11317.7201,E,0.00,237.33,010316,,,D*61
$GPRMC,092215.000,A,2308.6865,N,11317.7201,E,0.00,237.33,010316,,,D*60
$GPRMC,092216.000,A,2308.6865,N,11317.7201,E,0.00,237.33,010316,,,D*63
$GPRMC,092217.000,A,2308.6865,N,11317.7201,E,0.00,237.33,010316,,,D*62
$GPRMC,092218.000,A,2308.6865,N,11317.7201,E,0.00,237.33,010316,,,D*6D
$GPRMC,092219.000,A,2308.6865,N,11317.7201,E,0.00,237.33,010316,,,D*6C
$GPRMC,092220.000,A,2308.6865,N,11317.7201,E,0.00,237.33,010316,,,D*66
$GPRMC,092221.000,A,2308.6865,N,11317.7201,E,0.00,237.33,010316,,,D*67
$GPRMC,092222.000,A,2308.6865,N,11317.7201,E,0.00,237.33,010316,,,D*64
$GPRMC,092223.000,A,2308.6865,N,11317.7201,E,0.00,237.33,010316,,,D*65
$GPRMC,092224.000,A,2308.6865,N,11317.7201,E,0.00,237.33,010316,,,D*62
$GPRMC,092225.000,A,2308.6865,N,11317.7201,E,0.00,237.33,010316,,,D*63
$GPRMC,092226.000,A,2308.6865,N,11317.7201,E,0.00,237.33,010316,,,D*60
$GPRMC,092227.000,A,2308.6865,N,11317.7201,E,0.00,237.33,010316,,,D*61
$GPRMC,092228.000,A,2308.6865,N,11317.7201,E,0.00,237.33,010316,,,D*6E
$GPRMC,092229.000,A,2308.6865,N,11317.7201,E,0.00,237.33,010316,,,D*6F
$GPRMC,092230.000,A,2308.6865,N,11317.7201,E,0.00,237.33,010316,,,D*67
$GPRMC,092231.000,A,2308.6865,N,11317.7201,E,0.00,237.33,010316,,,D*66
$GPRMC,092232.000,A,2308.6865,N,11317.7201,E,0.00,237.33,010316,,,D*65
$GPRMC,092233.000,A,2308.6865,N,11317.7201,E,0.00,237.33,010316,,,D*64
$GPRMC,092234.000,A,2308.6865,N,11317.7201,E,0.00,237.33,010316,,,D*63
$GPRMC,092235.000,A,2308.6865,N,11317.7201,E,0.00,237.33,010316,,,D*62
$GPRMC,092236.000,A,2308.6865,N,11317.7201,E,0.00,237.33,010316,,,D*61
$GPRMC,092237.000,A,2308.6865,N,11317.7201,E,0.00,237.33,010316,,,D*60
$GPRMC,092238.000,A,2308.6865,N,11317.7201,E,0.00,237.33,010316,,,D*6F
$GPRMC,092239.000,A,2308.6865,N,11317.7201,E,0.00,237.33,010316,,,D*6E
$GPRMC,092240.000,A,2308.6865,N,11317.7201,E,0.00,237.33,010316,,,D*60
$GPRMC,092241.000,A,2308.6865,N,11317.7201,E,0.00,237.33,010316,,,D*61
$GPRMC,092242.000,A,2308.6865,N,11317.7201,E,0.00,237.33,010316,,,D*62
$GPRMC,092243.000,A,2308.6865,N,11317.7201,E,0.00,237.33,010316,,,D*63
$GPRMC,092244.000,A,2308.6865,N,11317.7201,E,0.00,237.33,010316,,,D*64
$GPRMC,092245.000,A,2308.6865,N,11317.7201,E,0.00,237.33,010316,,,D*65
$GPRMC,092246.000,A,2308.6865,N,11317.7201,E,0.00,237.33,010316,,,D*66
$GPRMC,092247.000,A,2308.6865,N,11317.7201,E,0.00,237.33,010316,,,D*67
$GPRMC,092248.000,A,2308.6865,N,11317.7201,E,0.00,237.33,010316,,,D*68
$GPRMC,092249.000,A,2308.6865,N,11317.7201,E,0.00,237.33,010316,,,D*69
$GPRMC,092250.000,A,2308.6865,N,11317.7201,E,0.00,237.33,010316,,,D*61
$GPRMC,092251.000,A,2308.6865,N,11317.7201,E,0.00,237.33,010316,,,D*60
$GPRMC,092252.000,A,2308.6863,N,11317.7201,E,0.00,237.33,010316,,,D*65
$GPRMC,092253.000,A,2308.6860,N,11317.7200,E,0.00,199.88,010316,,,D*61
$GPRMC,092254.000,A,2308.6855,N,11317.7199,E,1.80,195.59,010316,,,D*6A
$GPRMC,092255.000,A,2308.6849,N,11317.7197,E,2.53,196.37,010316,,,D*6E
$GPRMC,092256.000,A,2308.6840,N,11317.7193,E,4.21,197.80,010316,,,D*6E
$GPRMC,092257.000,A,2308.6828,N,11317.7184,E,6.27,200.07,010316,,,D*61
$GPRMC,092258.000,A,2308.6813,N,11317.7169,E,8.24,202.79,010316,,,D*63
$GPRMC,092259.000,A,2308.6796,N,11317.7148,E,9.79,205.44,010316,,,D*63
$GPRMC,092300.000,A,2308.6776,N,11317.7124,E,11.20,207.56,010316,,,D*5E
$GPRMC,092301.000,A,2308.6754,N,11317.7097,E,12.63,209.90,010316,,,D*56
$GPRMC,092302.000,A,2308.6728,N,11317.7066,E,14.09,211.87,010316,,,D*55
$GPRMC,092303.000,A,2308.6698,N,11317.7033,E,15.39,213.55,010316,,,D*51
$GPRMC,092304.000,A,2308.6667,N,11317.6998,E,16.58,215.03,010316,,,D*5E
$GPRMC,092305.000,A,2308.6632,N,11317.6963,E,17.47,216.34,010316,,,D*53
$GPRMC,092306.000,A,2308.6597,N,11317.6926,E,17.16,217.57,010316,,,D*5D
$GPRMC,092307.000,A,2308.6563,N,11317.6888,E,17.08,218.63,010316,,,D*55
$GPRMC,092308.000,A,2308.6529,N,11317.6852,E,16.71,219.51,010316,,,D*5C
$GPRMC,092309.000,A,2308.6494,N,11317.6817,E,16.64,220.98,010316,,,D*50
$GPRMC,092310.000,A,2308.6459,N,11317.6782,E,16.63,222.13,010316,,,D*5C
$GPRMC,092311.000,A,2308.6423,N,11317.6748,E,16.69,222.40,010316,,,D*5A
$GPRMC,092312.000,A,2308.6386,N,11317.6716,E,16.76,221.29,010316,,,D*58
$GPRMC,092313.000,A,2308.6348,N,11317.6683,E,16.83,220.84,010316,,,D*5A
$GPRMC,092314.000,A,2308.6310,N,11317.6653,E,16.87,220.00,010316,,,D*55
$GPRMC,092315.000,A,2308.6270,N,11317.6623,E,17.16,218.06,010316,,,D*50
$GPRMC,092316.000,A,2308.6232,N,11317.6591,E,17.50,218.44,010316,,,D*5B
$GPRMC,092317.000,A,2308.6195,N,11317.6554,E,17.56,218.67,010316,,,D*5A
$GPRMC,092318.000,A,2308.6160,N,11317.6516,E,17.82,218.83,010316,,,D*5A
$GPRMC,092319.000,A,2308.6125,N,11317.6476,E,17.85,219.40,010316,,,D*54
$GPRMC,092320.000,A,2308.6091,N,11317.6436,E,17.82,220.29,010316,,,D*56
$GPRMC,092321.000,A,2308.6058,N,11317.6395,E,17.22,220.58,010316,,,D*50
$GPRMC,092322.000,A,2308.6028,N,11317.6356,E,16.27,221.37,010316,,,D*57
$GPRMC,092323.000,A,2308.6000,N,11317.6314,E,15.31,222.11,010316,,,D*59
$GPRMC,092324.000,A,2308.5974,N,11317.6277,E,14.46,222.91,010316,,,D*5A
$GPRMC,092325.000,A,2308.5950,N,11317.6241,E,13.42,223.70,010316,,,D*55
$GPRMC,092326.000,A,2308.5929,N,11317.6208,E,12.54,224.67,010316,,,D*52
$GPRMC,092327.000,A,2308.5913,N,11317.6176,E,11.31,241.20,010316,,,D*50
$GPRMC,092328.000,A,2308.5902,N,11317.6148,E,9.67,248.69,010316,,,D*6C
$GPRMC,092329.000,A,2308.5900,N,11317.6126,E,6.42,268.37,010316,,,D*66
$GPRMC,092330.000,A,2308.5902,N,11317.6111,E,3.69,267.83,010316,,,D*64
$GPRMC,092331.000,A,2308.5902,N,11317.6100,E,3.69,267.23,010316,,,D*6F
$GPRMC,092332.000,A,2308.5902,N,11317.6090,E,3.66,265.89,010316,,,D*69
$GPRMC,092333.000,A,2308.5899,N,11317.6077,E,4.22,264.03,010316,,,D*66
$GPRMC,092334.000,A,2308.5892,N,11317.6064,E,5.39,260.93,010316,,,D*6E
$GPRMC,092335.000,A,2308.5881,N,11317.6052,E,6.10,258.80,010316,,,D*69
$GPRMC,092336.000,A,2308.5870,N,11317.6037,E,7.23,256.15,010316,,,D*64
$GPRMC,092337.000,A,2308.5857,N,11317.6019,E,8.81,253.64,010316,,,D*68
$GPRMC,092338.000,A,2308.5840,N,11317.5995,E,10.88,251.41,010316,,,D*5A
$GPRMC,092339.000,A,2308.5820,N,11317.5967,E,13.10,249.52,010316,,,D*59
$GPRMC,092340.000,A,2308.5796,N,11317.5933,E,15.32,247.74,010316,,,D*58
$GPRMC,092341.000,A,2308.5768,N,11317.5894,E,17.29,245.84,010316,,,D*51
$GPRMC,092342.000,A,2308.5736,N,11317.5851,E,18.99,244.22,010316,,,D*59
$GPRMC,092343.000,A,2308.5701,N,11317.5805,E,20.09,242.71,010316,,,D*5F
$GPRMC,092344.000,A,2308.5665,N,11317.5757,E,20.15,241.29,010316,,,D*50
$GPRMC,092345.000,A,2308.5627,N,11317.5713,E,19.79,239.82,010316,,,D*59
$GPRMC,092346.000,A,2308.5589,N,11317.5670,E,19.00,238.36,010316,,,D*59
$GPRMC,092347.000,A,2308.5551,N,11317.5630,E,18.47,236.92,010316,,,D*5B
$GPRMC,092348.000,A,2308.5513,N,11317.5592,E,18.02,235.48,010316,,,D*5C
$GPRMC,092349.000,A,2308.5476,N,11317.5556,E,18.04,234.11,010316,,,D*5C
$GPRMC,092350.000,A,2308.5439,N,11317.5518,E,17.86,232.88,010316,,,D*56
$GPRMC,092351.000,A,2308.5402,N,11317.5484,E,17.46,231.76,010316,,,D*55
$GPRMC,092352.000,A,2308.5366,N,11317.5451,E,16.54,230.74,010316,,,D*5A
$GPRMC,092353.000,A,2308.5335,N,11317.5418,E,14.67,229.79,010316,,,D*57
$GPRMC,092354.000,A,2308.5305,N,11317.5394,E,12.63,228.94,010316,,,D*50
$GPRMC,092355.000,A,2308.5280,N,11317.5376,E,10.87,228.18,010316,,,D*5D
$GPRMC,092356.000,A,2308.5257,N,11317.5359,E,10.13,227.51,010316,,,D*56
$GPRMC,092357.000,A,2308.5237,N,11317.5341,E,9.40,225.57,010316,,,D*62
$GPRMC,092358.000,A,2308.5221,N,11317.5326,E,7.36,224.59,010316,,,D*6B
$GPRMC,092359.000,A,2308.5210,N,11317.5314,E,4.95,224.75,010316,,,D*6D
$GPRMC,092400.000,A,2308.5202,N,11317.5305,E,3.52,224.74,010316,,,D*68
$GPRMC,092401.000,A,2308.5197,N,11317.5297,E,2.99,226.54,010316,,,D*6A
$GPRMC,092402.000,A,2308.5193,N,11317.5291,E,1.92,227.29,010316,,,D*68
$GPRMC,092403.000,A,2308.5191,N,11317.5288,E,0.07,227.53,010316,,,D*63
$GPRMC,092404.000,A,2308.5191,N,11317.5288,E,0.00,227.64,010316,,,D*67
$GPRMC,092405.000,A,2308.5192,N,11317.5290,E,0.00,227.64,010316,,,D*6C
$GPRMC,092406.000,A,2308.5192,N,11317.5290,E,0.01,227.64,010316,,,D*6E
$GPRMC,092407.000,A,2308.5192,N,11317.5290,E,0.01,227.64,010316,,,D*6F
$GPRMC,092408.000,A,2308.5192,N,11317.5291,E,0.00,227.64,010316,,,D*60
$GPRMC,092409.000,A,2308.5192,N,11317.5291,E,0.00,227.64,010316,,,D*61
$GPRMC,092410.000,A,2308.5192,N,11317.5291,E,0.00,227.64,010316,,,D*69
$GPRMC,092411.000,A,2308.5192,N,11317.5291,E,0.00,227.64,010316,,,D*68
$GPRMC,092412.000,A,2308.5192,N,11317.5291,E,0.00,227.64,010316,,,D*6B
$GPRMC,092413.000,A,2308.5192,N,11317.5291,E,0.00,227.64,010316,,,D*6A
$GPRMC,092414.000,A,2308.5192,N,11317.5291,E,0.00,227.64,010316,,,D*6D
$GPRMC,092415.000,A,2308.5192,N,11317.5291,E,0.00,227.64,010316,,,D*6C
$GPRMC,092416.000,A,2308.5192,N,11317.5291,E,0.00,227.64,010316,,,D*6F
$GPRMC,092417.000,A,2308.5192,N,11317.5291,E,0.00,227.64,010316,,,D*6E
$GPRMC,092418.000,A,2308.5192,N,11317.5291,E,0.00,227.64,010316,,,D*61
$GPRMC,092419.000,A,2308.5192,N,11317.5291,E,0.00,227.64,010316,,,D*60
$GPRMC,092420.000,A,2308.5192,N,11317.5291,E,0.00,227.64,010316,,,D*6A
$GPRMC,092421.000,A,2308.5192,N,11317.5291,E,0.00,227.64,010316,,,D*6B
$GPRMC,092422.000,A,2308.5192,N,11317.5291,E,0.00,227.64,010316,,,D*68
$GPRMC,092423.000,A,2308.5192,N,11317.5291,E,0.00,227.64,010316,,,D*69
$GPRMC,092424.000,A,2308.5192,N,11317.5291,E,0.00,227.64,010316,,,D*6E
$GPRMC,092425.000,A,2308.5192,N,11317.5291,E,0.00,227.64,010316,,,D*6F
$GPRMC,092426.000,A,2308.5192,N,11317.5291,E,0.00,227.64,010316,,,D*6C
$GPRMC,092427.000,A,2308.5192,N,11317.5291,E,0.00,227.64,010316,,,D*6D
$GPRMC,092428.000,A,2308.5192,N,11317.5291,E,0.00,227.64,010316,,,D*62
$GPRMC,092429.000,A,2308.5192,N,11317.5291,E,0.00,227.64,010316,,,D*63
$GPRMC,092430.000,A,2308.5192,N,11317.5291,E,0.00,227.64,010316,,,D*6B
$GPRMC,092431.000,A,2308.5192,N,11317.5291,E,0.00,227.64,010316,,,D*6A
$GPRMC,092432.000,A,2308.5192,N,11317.5291,E,0.00,227.64,010316,,,D*69
$GPRMC,092433.000,A,2308.5192,N,11317.5291,E,0.00,227.64,010316,,,D*68
$GPRMC,092434.000,A,2308.5192,N,11317.5291,E,0.00,227.64,010316,,,D*6F
$GPRMC,092435.000,A,2308.5192,N,11317.5291,E,0.00,227.64,010316,,,D*6E
$GPRMC,092436.000,A,2308.5192,N,11317.5291,E,0.00,227.64,010316,,,D*6D
$GPRMC,092437.000,A,2308.5192,N,11317.5291,E,0.00,227.64,010316,,,D*6C
$GPRMC,092438.000,A,2308.5192,N,11317.5291,E,0.00,227.64,010316,,,D*63
$GPRMC,092439.000,A,2308.5192,N,11317.5291,E,0.00,227.64,010316,,,D*62
$GPRMC,092440.000,A,2308.5192,N,11317.5291,E,0.00,227.64,010316,,,D*6C
$GPRMC,092441.000,A,2308.5192,N,11317.5291,E,0.00,227.64,010316,,,D*6D
$GPRMC,092442.000,A,2308.5192,N,11317.5291,E,0.00,227.64,010316,,,D*6E
$GPRMC,092443.000,A,2308.5192,N,11317.5291,E,0.00,227.64,010316,,,D*6F
$GPRMC,092444.000,A,2308.5192,N,11317.5291,E,0.00,227.64,010316,,,D*68
$GPRMC,092445.000,A,2308.5192,N,11317.5291,E,0.00,227.64,010316,,,D*69
$GPRMC,092446.000,A,2308.5192,N,11317.5291,E,0.00,227.64,010316,,,D*6A
$GPRMC,092447.000,A,2308.5192,N,11317.5291,E,0.00,227.64,010316,,,D*6B
$GPRMC,092448.000,A,2308.5192,N,11317.5291,E,0.00,227.64,010316,,,D*64
$GPRMC,092449.000,A,2308.5192,N,11317.5291,E,0.00,227.64,010316,,,D*65
$GPRMC,092450.000,A,2308.5192,N,11317.5291,E,0.00,228.50,010316,,,D*65
$GPRMC,092451.000,A,2308.5185,N,11317.5282,E,4.66,228.36,010316,,,D*64
$GPRMC,092452.000,A,2308.5175,N,11317.5271,E,4.93,227.08,010316,,,D*6C
$GPRMC,092453.000,A,2308.5165,N,11317.5259,E,5.41,224.99,010316,,,D*63
$GPRMC,092454.000,A,2308.5152,N,11317.5246,E,6.76,224.81,010316,,,D*60
$GPRMC,092455.000,A,2308.5138,N,11317.5231,E,7.02,223.65,010316,,,D*62
$GPRMC,092456.000,A,2308.5124,N,11317.5216,E,7.06,223.30,010316,,,D*6D
$GPRMC,092457.000,A,2308.5110,N,11317.5201,E,6.63,222.34,010316,,,D*6A
$GPRMC,092458.000,A,2308.5098,N,11317.5187,E,6.16,222.47,010316,,,D*6F
$GPRMC,092459.000,A,2308.5087,N,11317.5174,E,6.16,222.96,010316,,,D*60
$GPRMC,092500.000,A,2308.5076,N,11317.5160,E,5.73,226.01,010316,,,D*6C
$GPRMC,092501.000,A,2308.5068,N,11317.5148,E,4.80,226.60,010316,,,D*62
$GPRMC,092502.000,A,2308.5061,N,11317.5136,E,4.57,237.35,010316,,,D*6B
$GPRMC,092503.000,A,2308.5056,N,11317.5123,E,4.19,250.67,010316,,,D*66
$GPRMC,092504.000,A,2308.5055,N,11317.5110,E,4.36,272.41,010316,,,D*6B
$GPRMC,092505.000,A,2308.5059,N,11317.5096,E,4.78,289.89,010316,,,D*63
$GPRMC,092506.000,A,2308.5066,N,11317.5081,E,5.80,306.81,010316,,,D*62
$GPRMC,092507.000,A,2308.5081,N,11317.5064,E,8.44,319.02,010316,,,D*61
$GPRMC,092508.000,A,2308.5102,N,11317.5045,E,10.36,321.41,010316,,,D*57
$GPRMC,092509.000,A,2308.5127,N,11317.5022,E,12.43,320.94,010316,,,D*59
$GPRMC,092510.000,A,2308.5158,N,11317.4997,E,14.14,322.58,010316,,,D*59
$GPRMC,092511.000,A,2308.5192,N,11317.4970,E,14.89,323.64,010316,,,D*5D
$GPRMC,092512.000,A,2308.5226,N,11317.4943,E,14.71,322.81,010316,,,D*5F
$GPRMC,092513.000,A,2308.5258,N,11317.4915,E,13.82,323.05,010316,,,D*52
$GPRMC,092514.000,A,2308.5288,N,11317.4889,E,13.02,322.62,010316,,,D*54
$GPRMC,092515.000,A,2308.5316,N,11317.4865,E,12.50,321.82,010316,,,D*5A
$GPRMC,092516.000,A,2308.5344,N,11317.4840,E,13.09,320.70,010316,,,D*58
$GPRMC,092517.000,A,2308.5375,N,11317.4816,E,13.82,320.75,010316,,,D*5E
$GPRMC,092518.000,A,2308.5406,N,11317.4790,E,14.03,321.68,010316,,,D*50
$GPRMC,092519.000,A,2308.5440,N,11317.4763,E,14.73,322.39,010316,,,D*5F
$GPRMC,092520.000,A,2308.5478,N,11317.4741,E,15.74,334.06,010316,,,D*53
$GPRMC,092521.000,A,2308.5520,N,11317.4723,E,16.61,340.78,010316,,,D*57
$GPRMC,092522.000,A,2308.5563,N,11317.4704,E,16.57,343.77,010316,,,D*5F
$GPRMC,092523.000,A,2308.5604,N,11317.4690,E,14.64,345.43,010316,,,D*53
$GPRMC,092524.000,A,2308.5640,N,11317.4680,E,12.27,352.06,010316,,,D*53
$GPRMC,092525.000,A,2308.5670,N,11317.4673,E,9.47,351.00,010316,,,D*64
$GPRMC,092526.000,A,2308.5690,N,11317.4665,E,5.63,350.92,010316,,,D*6E
$GPRMC,092527.000,A,2308.5703,N,11317.4662,E,4.52,0.25,010316,,,D*6A
$GPRMC,092528.000,A,2308.5715,N,11317.4661,E,4.36,358.22,010316,,,D*6A
$GPRMC,092529.000,A,2308.5728,N,11317.4659,E,5.69,357.49,010316,,,D*67
$GPRMC,092530.000,A,2308.5747,N,11317.4657,E,8.04,349.34,010316,,,D*6B
$GPRMC,092531.000,A,2308.5771,N,11317.4650,E,9.81,345.63,010316,,,D*6A
$GPRMC,092532.000,A,2308.5801,N,11317.4641,E,11.57,346.14,010316,,,D*50
$GPRMC,092533.000,A,2308.5835,N,11317.4634,E,13.26,353.24,010316,,,D*57
$GPRMC,092534.000,A,2308.5875,N,11317.4629,E,15.15,354.70,010316,,,D*58
$GPRMC,092535.000,A,2308.5920,N,11317.4625,E,16.36,357.09,010316,,,D*5B
$GPRMC,092536.000,A,2308.5967,N,11317.4621,E,17.03,357.64,010316,,,D*53
$GPRMC,092537.000,A,2308.6017,N,11317.4619,E,18.12,358.86,010316,,,D*58
$GPRMC,092538.000,A,2308.6070,N,11317.4616,E,19.20,358.39,010316,,,D*5D
$GPRMC,092539.000,A,2308.6126,N,11317.4612,E,19.86,356.22,010316,,,D*52
$GPRMC,092540.000,A,2308.6183,N,11317.4604,E,20.60,353.78,010316,,,D*5C
$GPRMC,092541.000,A,2308.6243,N,11317.4595,E,21.37,352.26,010316,,,D*50
$GPRMC,092542.000,A,2308.6302,N,11317.4581,E,21.11,351.28,010316,,,D*5B
$GPRMC,092543.000,A,2308.6360,N,11317.4570,E,20.32,349.92,010316,,,D*58
$GPRMC,092544.000,A,2308.6416,N,11317.4559,E,19.59,349.45,010316,,,D*5F
$GPRMC,092545.000,A,2308.6469,N,11317.4548,E,18.82,349.08,010316,,,D*58
$GPRMC,092546.000,A,2308.6519,N,11317.4536,E,17.92,347.82,010316,,,D*56
$GPRMC,092547.000,A,2308.6566,N,11317.4521,E,17.03,347.05,010316,,,D*5E
$GPRMC,092548.000,A,2308.6611,N,11317.4507,E,15.96,345.57,010316,,,D*5D
$GPRMC,092549.000,A,2308.6653,N,11317.4494,E,15.43,344.59,010316,,,D*56
$GPRMC,092550.000,A,2308.6694,N,11317.4481,E,15.36,344.13,010316,,,D*5D
$GPRMC,092551.000,A,2308.6735,N,11317.4470,E,15.13,345.17,010316,,,D*5A
$GPRMC,092552.000,A,2308.6775,N,11317.4465,E,14.41,358.10,010316,,,D*54
$GPRMC,092553.000,A,2308.6814,N,11317.4471,E,13.86,10.19,010316,,,D*62
$GPRMC,092554.000,A,2308.6851,N,11317.4481,E,13.86,15.86,010316,,,D*68
$GPRMC,092555.000,A,2308.6890,N,11317.4494,E,14.47,13.71,010316,,,D*64
$GPRMC,092556.000,A,2308.6930,N,11317.4505,E,15.59,12.46,010316,,,D*6E
$GPRMC,092557.000,A,2308.6974,N,11317.4515,E,16.23,12.30,010316,,,D*61
$GPRMC,092558.000,A,2308.7018,N,11317.4525,E,16.68,10.16,010316,,,D*66
$GPRMC,092559.000,A,2308.7061,N,11317.4537,E,15.86,11.59,010316,,,D*63
$GPRMC,092600.000,A,2308.7102,N,11317.4546,E,15.01,10.08,010316,,,D*64
$GPRMC,092601.000,A,2308.7141,N,11317.4555,E,14.52,10.45,010316,,,D*6E
$GPRMC,092602.000,A,2308.7179,N,11317.4563,E,13.51,10.45,010316,,,D*67
$GPRMC,092603.000,A,2308.7215,N,11317.4569,E,12.27,9.65,010316,,,D*5F
$GPRMC,092604.000,A,2308.7246,N,11317.4572,E,9.37,8.90,010316,,,D*64
$GPRMC,092605.000,A,2308.7268,N,11317.4571,E,6.06,351.26,010316,,,D*65
$GPRMC,092606.000,A,2308.7281,N,11317.4567,E,3.67,337.09,010316,,,D*69
$GPRMC,092607.000,A,2308.7286,N,11317.4566,E,0.18,337.09,010316,,,D*65
$GPRMC,092608.000,A,2308.7290,N,11317.4564,E,0.08,337.09,010316,,,D*6E
$GPRMC,092609.000,A,2308.7291,N,11317.4562,E,0.08,337.09,010316,,,D*68
$GPRMC,092610.000,A,2308.7299,N,11317.4561,E,0.32,337.09,010316,,,D*62
$GPRMC,092611.000,A,2308.7313,N,11317.4564,E,7.27,1.65,010316,,,D*6A
$GPRMC,092612.000,A,2308.7334,N,11317.4576,E,10.13,0.67,010316,,,D*5D
$GPRMC,092613.000,A,2308.7363,N,11317.4578,E,11.77,349.60,010316,,,D*5A
$GPRMC,092614.000,A,2308.7396,N,11317.4566,E,13.29,348.32,010316,,,D*57
$GPRMC,092615.000,A,2308.7432,N,11317.4545,E,14.96,346.38,010316,,,D*59
$GPRMC,092616.000,A,2308.7468,N,11317.4518,E,15.57,344.31,010316,,,D*5A
$GPRMC,092617.000,A,2308.7504,N,11317.4486,E,16.29,342.13,010316,,,D*5A
$GPRMC,092618.000,A,2308.7540,N,11317.4453,E,17.30,314.24,010316,,,D*53
$GPRMC,092619.000,A,2308.7573,N,11317.4413,E,18.10,308.22,010316,,,D*50
$GPRMC,092620.000,A,2308.7605,N,11317.4371,E,18.09,309.46,010316,,,D*50
$GPRMC,092621.000,A,2308.7639,N,11317.4331,E,18.70,311.13,010316,,,D*5D
$GPRMC,092622.000,A,2308.7672,N,11317.4290,E,18.02,310.05,010316,,,D*58
$GPRMC,092623.000,A,2308.7700,N,11317.4250,E,15.79,307.33,010316,,,D*53
$GPRMC,092624.000,A,2308.7727,N,11317.4215,E,14.86,308.23,010316,,,D*5F
$GPRMC,092625.000,A,2308.7751,N,11317.4188,E,12.95,308.34,010316,,,D*5A
$GPRMC,092626.000,A,2308.7774,N,11317.4160,E,12.57,307.50,010316,,,D*5B
$GPRMC,092627.000,A,2308.7792,N,11317.4130,E,13.29,297.19,010316,,,D*5A
$GPRMC,092628.000,A,2308.7810,N,11317.4090,E,14.66,285.08,010316,,,D*54
$GPRMC,092629.000,A,2308.7841,N,11317.4057,E,13.57,286.48,010316,,,D*58
$GPRMC,092630.000,A,2308.7857,N,11317.4015,E,14.80,287.14,010316,,,D*54
$GPRMC,092631.000,A,2308.7870,N,11317.3971,E,14.99,288.51,010316,,,D*5A
$GPRMC,092632.000,A,2308.7885,N,11317.3922,E,16.05,288.75,010316,,,D*54
$GPRMC,092633.000,A,2308.7903,N,11317.3864,E,18.46,288.64,010316,,,D*50
$GPRMC,092634.000,A,2308.7917,N,11317.3805,E,17.09,283.53,010316,,,D*5E
$GPRMC,092635.000,A,2308.7945,N,11317.3772,E,12.61,306.81,010316,,,D*5F
$GPRMC,092636.000,A,2308.7961,N,11317.3731,E,14.00,280.37,010316,,,D*5E
$GPRMC,092637.000,A,2308.7965,N,11317.3684,E,13.65,278.19,010316,,,D*5B
$GPRMC,092638.000,A,2308.7990,N,11317.3647,E,11.90,279.15,010316,,,D*54
$GPRMC,092639.000,A,2308.7996,N,11317.3608,E,11.06,279.87,010316,,,D*5C
$GPRMC,092640.000,A,2308.7993,N,11317.3570,E,9.24,284.11,010316,,,D*6F
$GPRMC,092641.000,A,2308.8008,N,11317.3544,E,8.63,287.25,010316,,,D*6B
$GPRMC,092642.000,A,2308.8018,N,11317.3519,E,9.12,288.80,010316,,,D*66
$GPRMC,092643.000,A,2308.8024,N,11317.3491,E,9.84,286.74,010316,,,D*63
$GPRMC,092644.000,A,2308.8025,N,11317.3461,E,10.85,264.88,010316,,,D*5C
$GPRMC,092645.000,A,2308.8027,N,11317.3433,E,11.06,240.45,010316,,,D*55
$GPRMC,092646.000,A,2308.8011,N,11317.3405,E,11.83,225.41,010316,,,D*5C
$GPRMC,092647.000,A,2308.7990,N,11317.3380,E,11.82,223.83,010316,,,D*51
$GPRMC,092648.000,A,2308.7977,N,11317.3354,E,12.22,227.30,010316,,,D*5B
$GPRMC,092649.000,A,2308.7975,N,11317.3324,E,13.66,228.89,010316,,,D*53
$GPRMC,092650.000,A,2308.7958,N,11317.3291,E,14.60,230.25,010316,,,D*55
$GPRMC,092651.000,A,2308.7934,N,11317.3256,E,15.04,231.79,010316,,,D*5E
$GPRMC,092652.000,A,2308.7911,N,11317.3220,E,15.10,232.40,010316,,,D*57
$GPRMC,092653.000,A,2308.7887,N,11317.3183,E,14.93,233.27,010316,,,D*58
$GPRMC,092654.000,A,2308.7862,N,11317.3149,E,15.26,227.33,010316,,,D*5D
$GPRMC,092655.000,A,2308.7836,N,11317.3117,E,15.69,222.72,010316,,,D*5D
$GPRMC,092656.000,A,2308.7813,N,11317.3082,E,15.12,223.51,010316,,,D*58
$GPRMC,092657.000,A,2308.7785,N,11317.3050,E,14.56,224.69,010316,,,D*5B
$GPRMC,092658.000,A,2308.7765,N,11317.3024,E,12.08,227.43,010316,,,D*5F
$GPRMC,092659.000,A,2308.7750,N,11317.3004,E,10.29,229.81,010316,,,D*5B
$GPRMC,092700.000,A,2308.7734,N,11317.2979,E,10.48,229.90,010316,,,D*51
$GPRMC,092701.000,A,2308.7717,N,11317.2956,E,11.03,230.99,010316,,,D*53
$GPRMC,092702.000,A,2308.7697,N,11317.2930,E,12.50,231.17,010316,,,D*5B
$GPRMC,092703.000,A,2308.7672,N,11317.2900,E,15.38,229.59,010316,,,D*58
$GPRMC,092704.000,A,2308.7643,N,11317.2865,E,16.26,227.98,010316,,,D*50
$GPRMC,092705.000,A,2308.7613,N,11317.2824,E,18.17,227.37,010316,,,D*58
$GPRMC,092706.000,A,2308.7569,N,11317.2791,E,19.06,225.61,010316,,,D*54
$GPRMC,092707.000,A,2308.7526,N,11317.2753,E,19.00,224.43,010316,,,D*57
$GPRMC,092708.000,A,2308.7485,N,11317.2716,E,18.56,224.36,010316,,,D*51
$GPRMC,092709.000,A,2308.7446,N,11317.2678,E,17.91,224.49,010316,,,D*5A
$GPRMC,092710.000,A,2308.7411,N,11317.2642,E,16.94,224.33,010316,,,D*50
$GPRMC,092711.000,A,2308.7378,N,11317.2604,E,17.84,225.75,010316,,,D*58
$GPRMC,092712.000,A,2308.7345,N,11317.2569,E,17.34,219.92,010316,,,D*50
$GPRMC,092713.000,A,2308.7306,N,11317.2537,E,17.53,218.22,010316,,,D*56
$GPRMC,092714.000,A,2308.7264,N,11317.2507,E,17.58,213.80,010316,,,D*5F
$GPRMC,092715.000,A,2308.7221,N,11317.2479,E,17.96,211.81,010316,,,D*56
$GPRMC,092716.000,A,2308.7177,N,11317.2450,E,17.97,213.34,010316,,,D*53
$GPRMC,092717.000,A,2308.7134,N,11317.2421,E,18.00,213.66,010316,,,D*55
$GPRMC,092718.000,A,2308.7094,N,11317.2395,E,15.40,211.01,010316,,,D*53
$GPRMC,092719.000,A,2308.7059,N,11317.2378,E,12.56,200.13,010316,,,D*53
$GPRMC,092720.000,A,2308.7031,N,11317.2365,E,10.91,203.06,010316,,,D*55
$GPRMC,092721.000,A,2308.7007,N,11317.2348,E,11.32,223.54,010316,,,D*53
$GPRMC,092722.000,A,2308.6988,N,11317.2323,E,13.12,234.09,010316,,,D*5C
$GPRMC,092723.000,A,2308.6965,N,11317.2288,E,13.86,233.36,010316,,,D*58
$GPRMC,092724.000,A,2308.6934,N,11317.2256,E,14.96,231.66,010316,,,D*59
$GPRMC,092725.000,A,2308.6897,N,11317.2227,E,15.84,229.66,010316,,,D*5D
$GPRMC,092726.000,A,2308.6858,N,11317.2200,E,15.11,228.10,010316,,,D*54
$GPRMC,092727.000,A,2308.6817,N,11317.2170,E,13.83,226.88,010316,,,D*58
$GPRMC,092728.000,A,2308.6779,N,11317.2141,E,14.33,225.43,010316,,,D*5A
$GPRMC,092729.000,A,2308.6743,N,11317.2115,E,15.07,224.26,010316,,,D*57
$GPRMC,092730.000,A,2308.6705,N,11317.2091,E,15.96,223.06,010316,,,D*5D
$GPRMC,092731.000,A,2308.6666,N,11317.2065,E,17.59,217.16,010316,,,D*54
$GPRMC,092732.000,A,2308.6625,N,11317.2036,E,18.09,216.28,010316,,,D*50
$GPRMC,092733.000,A,2308.6584,N,11317.2005,E,18.95,215.93,010316,,,D*5F
$GPRMC,092734.000,A,2308.6542,N,11317.1966,E,21.38,226.13,010316,,,D*58
$GPRMC,092735.000,A,2308.6501,N,11317.1915,E,22.16,229.04,010316,,,D*5C
$GPRMC,092736.000,A,2308.6462,N,11317.1869,E,19.66,228.07,010316,,,D*5C
$GPRMC,092737.000,A,2308.6429,N,11317.1831,E,15.44,228.60,010316,,,D*52
$GPRMC,092738.000,A,2308.6403,N,11317.1806,E,11.44,228.62,010316,,,D*57
$GPRMC,092739.000,A,2308.6383,N,11317.1787,E,8.51,222.99,010316,,,D*6D
$GPRMC,092740.000,A,2308.6372,N,11317.1774,E,7.94,228.46,010316,,,D*6F
$GPRMC,092741.000,A,2308.6373,N,11317.1751,E,6.89,233.32,010316,,,D*6C
$GPRMC,092742.000,A,2308.6365,N,11317.1740,E,6.07,235.88,010316,,,D*69
$GPRMC,092743.000,A,2308.6358,N,11317.1727,E,6.13,237.79,010316,,,D*6E
$GPRMC,092744.000,A,2308.6349,N,11317.1712,E,6.78,239.50,010316,,,D*67
$GPRMC,092745.000,A,2308.6343,N,11317.1696,E,7.41,262.27,010316,,,D*64
$GPRMC,092746.000,A,2308.6333,N,11317.1678,E,7.65,261.10,010316,,,D*61
$GPRMC,092747.000,A,2308.6318,N,11317.1663,E,5.96,259.49,010316,,,D*6A
$GPRMC,092748.000,A,2308.6311,N,11317.1647,E,7.00,257.27,010316,,,D*61
$GPRMC,092749.000,A,2308.6297,N,11317.1630,E,7.40,254.93,010316,,,D*67
$GPRMC,092750.000,A,2308.6285,N,11317.1612,E,7.56,253.12,010316,,,D*65
$GPRMC,092751.000,A,2308.6280,N,11317.1594,E,7.05,251.14,010316,,,D*6E
$GPRMC,092752.000,A,2308.6272,N,11317.1568,E,11.17,249.29,010316,,,D*50
$GPRMC,092753.000,A,2308.6256,N,11317.1535,E,13.41,247.89,010316,,,D*5A
$GPRMC,092754.000,A,2308.6237,N,11317.1501,E,13.48,246.77,010316,,,D*54
$GPRMC,092755.000,A,2308.6214,N,11317.1462,E,12.91,245.83,010316,,,D*5D
$GPRMC,092756.000,A,2308.6193,N,11317.1424,E,14.30,246.64,010316,,,D*57
$GPRMC,092757.000,A,2308.6173,N,11317.1384,E,13.34,246.57,010316,,,D*56
$GPRMC,092758.000,A,2308.6148,N,11317.1343,E,13.06,246.25,010316,,,D*5E
$GPRMC,092759.000,A,2308.6129,N,11317.1307,E,12.63,246.29,010316,,,D*56
$GPRMC,092800.000,A,2308.6112,N,11317.1275,E,12.02,246.69,010316,,,D*5A
$GPRMC,092801.000,A,2308.6109,N,11317.1250,E,10.68,247.67,010316,,,D*57
$GPRMC,092802.000,A,2308.6098,N,11317.1220,E,11.11,248.34,010316,,,D*5C
$GPRMC,092803.000,A,2308.6084,N,11317.1199,E,9.15,247.86,010316,,,D*6A
$GPRMC,092804.000,A,2308.6070,N,11317.1179,E,9.98,247.62,010316,,,D*67
$GPRMC,092805.000,A,2308.6055,N,11317.1156,E,10.03,245.81,010316,,,D*59
$GPRMC,092806.000,A,2308.6044,N,11317.1134,E,9.70,245.54,010316,,,D*6A
$GPRMC,092807.000,A,2308.6035,N,11317.1110,E,10.92,253.45,010316,,,D*58
$GPRMC,092808.000,A,2308.6026,N,11317.1080,E,11.73,255.12,010316,,,D*57
$GPRMC,092809.000,A,2308.6018,N,11317.1050,E,12.78,258.96,010316,,,D*5F
$GPRMC,092810.000,A,2308.6008,N,11317.1017,E,12.84,259.79,010316,,,D*56
$GPRMC,092811.000,A,2308.6004,N,11317.0991,E,10.22,262.91,010316,,,D*5D
$GPRMC,092812.000,A,2308.6001,N,11317.0966,E,9.28,264.27,010316,,,D*6A
$GPRMC,092813.000,A,2308.5997,N,11317.0942,E,9.10,262.20,010316,,,D*62
$GPRMC,092814.000,A,2308.5990,N,11317.0917,E,10.01,255.22,010316,,,D*5C
$GPRMC,092815.000,A,2308.5980,N,11317.0891,E,11.06,254.17,010316,,,D*52
$GPRMC,092816.000,A,2308.5969,N,11317.0861,E,12.58,255.31,010316,,,D*54
$GPRMC,092817.000,A,2308.5958,N,11317.0826,E,13.63,257.47,010316,,,D*5E
$GPRMC,092818.000,A,2308.5958,N,11317.0781,E,14.84,266.13,010316,,,D*5E
$GPRMC,092819.000,A,2308.5960,N,11317.0738,E,14.16,271.38,010316,,,D*52
$GPRMC,092820.000,A,2308.5963,N,11317.0697,E,13.31,272.19,010316,,,D*5D
$GPRMC,092821.000,A,2308.5963,N,11317.0658,E,12.52,273.20,010316,,,D*50
$GPRMC,092822.000,A,2308.5962,N,11317.0625,E,10.92,271.92,010316,,,D*5D
$GPRMC,092823.000,A,2308.5966,N,11317.0606,E,8.15,270.95,010316,,,D*69
$GPRMC,092824.000,A,2308.5958,N,11317.0580,E,9.38,269.01,010316,,,D*65
$GPRMC,092825.000,A,2308.5949,N,11317.0547,E,9.59,267.89,010316,,,D*66
$GPRMC,092826.000,A,2308.5943,N,11317.0518,E,9.96,267.85,010316,,,D*6A
$GPRMC,092827.000,A,2308.5938,N,11317.0490,E,10.19,265.34,010316,,,D*51
$GPRMC,092828.000,A,2308.5932,N,11317.0462,E,10.13,262.84,010316,,,D*5F
$GPRMC,092829.000,A,2308.5921,N,11317.0434,E,10.17,262.82,010316,,,D*5D
$GPRMC,092830.000,A,2308.5919,N,11317.0400,E,10.54,263.17,010316,,,D*53
$GPRMC,092831.000,A,2308.5921,N,11317.0364,E,10.18,263.28,010316,,,D*58
$GPRMC,092832.000,A,2308.5928,N,11317.0331,E,10.60,274.74,010316,,,D*52
$GPRMC,092833.000,A,2308.5933,N,11317.0296,E,11.23,272.59,010316,,,D*5A
$GPRMC,092834.000,A,2308.5932,N,11317.0257,E,11.88,271.87,010316,,,D*50
$GPRMC,092835.000,A,2308.5931,N,11317.0218,E,11.91,270.77,010316,,,D*5F
$GPRMC,092836.000,A,2308.5932,N,11317.0185,E,10.41,269.34,010316,,,D*5B
$GPRMC,092837.000,A,2308.5927,N,11317.0156,E,9.60,266.39,010316,,,D*69
$GPRMC,092838.000,A,2308.5912,N,11317.0137,E,9.68,218.59,010316,,,D*60
$GPRMC,092839.000,A,2308.5885,N,11317.0117,E,10.79,209.84,010316,,,D*54
$GPRMC,092840.000,A,2308.5849,N,11317.0087,E,15.54,210.83,010316,,,D*57
$GPRMC,092841.000,A,2308.5812,N,11317.0058,E,16.04,213.52,010316,,,D*53
$GPRMC,092842.000,A,2308.5776,N,11317.0028,E,16.06,214.92,010316,,,D*53
$GPRMC,092843.000,A,2308.5741,N,11317.0001,E,14.93,216.07,010316,,,D*5D
$GPRMC,092844.000,A,2308.5708,N,11316.9982,E,12.46,208.66,010316,,,D*5B
$GPRMC,092845.000,A,2308.5675,N,11316.9957,E,13.92,211.84,010316,,,D*55
$GPRMC,092846.000,A,2308.5645,N,11316.9935,E,14.29,212.47,010316,,,D*5A
$GPRMC,092847.000,A,2308.5609,N,11316.9913,E,14.35,211.99,010316,,,D*5A
$GPRMC,092848.000,A,2308.5577,N,11316.9888,E,13.13,217.13,010316,,,D*5B
$GPRMC,092849.000,A,2308.5550,N,11316.9863,E,10.78,219.73,010316,,,D*5C
$GPRMC,092850.000,A,2308.5527,N,11316.9834,E,10.31,226.84,010316,,,D*5F
$GPRMC,092851.000,A,2308.5507,N,11316.9804,E,9.83,223.94,010316,,,D*6A
$GPRMC,092852.000,A,2308.5489,N,11316.9778,E,8.78,224.44,010316,,,D*65
$GPRMC,092853.000,A,2308.5472,N,11316.9752,E,9.00,225.68,010316,,,D*69
$GPRMC,092854.000,A,2308.5457,N,11316.9725,E,8.82,227.29,010316,,,D*65
$GPRMC,092855.000,A,2308.5443,N,11316.9695,E,9.48,228.89,010316,,,D*69
$GPRMC,092856.000,A,2308.5427,N,11316.9667,E,10.83,237.77,010316,,,D*55
$GPRMC,092857.000,A,2308.5407,N,11316.9639,E,11.59,230.06,010316,,,D*5A
$GPRMC,092858.000,A,2308.5382,N,11316.9618,E,10.52,214.75,010316,,,D*54
$GPRMC,092859.000,A,2308.5356,N,11316.9605,E,9.76,197.78,010316,,,D*6B
$GPRMC,092900.000,A,2308.5328,N,11316.9594,E,9.23,186.31,010316,,,D*69
$GPRMC,092901.000,A,2308.5303,N,11316.9583,E,7.67,189.44,010316,,,D*64
$GPRMC,092902.000,A,2308.5282,N,11316.9582,E,6.34,189.96,010316,,,D*66
$GPRMC,092903.000,A,2308.5268,N,11316.9578,E,5.43,207.10,010316,,,D*6E
$GPRMC,092904.000,A,2308.5255,N,11316.9580,E,4.24,218.84,010316,,,D*63
$GPRMC,092905.000,A,2308.5248,N,11316.9575,E,1.99,218.84,010316,,,D*67
$GPRMC,092906.000,A,2308.5245,N,11316.9574,E,0.08,218.84,010316,,,D*61
$GPRMC,092907.000,A,2308.5241,N,11316.9576,E,0.07,218.84,010316,,,D*69
$GPRMC,092908.000,A,2308.5238,N,11316.9573,E,0.14,218.84,010316,,,D*6F
$GPRMC,092909.000,A,2308.5233,N,11316.9567,E,0.22,218.84,010316,,,D*65
$GPRMC,092910.000,A,2308.5222,N,11316.9562,E,4.63,217.94,010316,,,D*67
$GPRMC,092911.000,A,2308.5206,N,11316.9549,E,9.23,217.22,010316,,,D*6D
$GPRMC,092912.000,A,2308.5180,N,11316.9532,E,11.28,216.41,010316,,,D*59
$GPRMC,092913.000,A,2308.5153,N,11316.9514,E,11.25,215.62,010316,,,D*5D
$GPRMC,092914.000,A,2308.5128,N,11316.9501,E,8.38,201.57,010316,,,D*65
$GPRMC,092915.000,A,2308.5112,N,11316.9493,E,4.03,202.16,010316,,,D*65
$GPRMC,092916.000,A,2308.5105,N,11316.9485,E,3.50,205.64,010316,,,D*64
$GPRMC,092917.000,A,2308.5099,N,11316.9478,E,4.34,208.35,010316,,,D*6F
$GPRMC,092918.000,A,2308.5089,N,11316.9467,E,6.71,210.03,010316,,,D*60
$GPRMC,092919.000,A,2308.5074,N,11316.9454,E,8.07,211.17,010316,,,D*68
$GPRMC,092920.000,A,2308.5057,N,11316.9442,E,7.12,212.16,010316,,,D*6D
$GPRMC,092921.000,A,2308.5035,N,11316.9427,E,9.86,211.98,010316,,,D*6D
$GPRMC,092922.000,A,2308.5010,N,11316.9412,E,10.38,211.19,010316,,,D*5B
$GPRMC,092923.000,A,2308.4983,N,11316.9402,E,10.85,210.33,010316,,,D*56
$GPRMC,092924.000,A,2308.4954,N,11316.9395,E,11.11,209.03,010316,,,D*55
$GPRMC,092925.000,A,2308.4925,N,11316.9390,E,10.90,207.41,010316,,,D*57
$GPRMC,092926.000,A,2308.4895,N,11316.9389,E,10.49,205.10,010316,,,D*54
$GPRMC,092927.000,A,2308.4865,N,11316.9389,E,11.82,203.15,010316,,,D*5F
$GPRMC,092928.000,A,2308.4836,N,11316.9392,E,10.44,200.44,010316,,,D*50
$GPRMC,092929.000,A,2308.4808,N,11316.9392,E,10.05,190.60,010316,,,D*55
$GPRMC,092930.000,A,2308.4779,N,11316.9395,E,10.56,189.99,010316,,,D*5B
$GPRMC,092931.000,A,2308.4751,N,11316.9387,E,10.59,189.37,010316,,,D*58
$GPRMC,092932.000,A,2308.4725,N,11316.9381,E,9.85,186.62,010316,,,D*68
$GPRMC,092933.000,A,2308.4698,N,11316.9380,E,9.79,176.71,010316,,,D*61
$GPRMC,092934.000,A,2308.4673,N,11316.9380,E,9.50,173.65,010316,,,D*68
$GPRMC,092935.000,A,2308.4649,N,11316.9384,E,9.29,163.54,010316,,,D*69
$GPRMC,092936.000,A,2308.4627,N,11316.9376,E,8.79,165.39,010316,,,D*66
$GPRMC,092937.000,A,2308.4606,N,11316.9380,E,7.35,165.38,010316,,,D*6B
$GPRMC,092938.000,A,2308.4592,N,11316.9381,E,4.29,162.00,010316,,,D*69
$GPRMC,092939.000,A,2308.4585,N,11316.9393,E,0.03,162.00,010316,,,D*61
$GPRMC,092940.000,A,2308.4586,N,11316.9396,E,0.09,162.00,010316,,,D*63
$GPRMC,092941.000,A,2308.4584,N,11316.9418,E,0.12,161.19,010316,,,D*60
$GPRMC,092942.000,A,2308.4585,N,11316.9421,E,0.11,160.94,010316,,,D*6F
$GPRMC,092943.000,A,2308.4587,N,11316.9424,E,0.06,161.14,010316,,,D*66
$GPRMC,092944.000,A,2308.4588,N,11316.9425,E,0.00,161.14,010316,,,D*69
$GPRMC,092945.000,A,2308.4588,N,11316.9425,E,0.00,161.14,010316,,,D*68
$GPRMC,092946.000,A,2308.4588,N,11316.9425,E,0.00,161.14,010316,,,D*6B
$GPRMC,092947.000,A,2308.4588,N,11316.9425,E,0.00,161.14,010316,,,D*6A
$GPRMC,092948.000,A,2308.4585,N,11316.9424,E,0.30,161.14,010316,,,D*6A
$GPRMC,092949.000,A,2308.4573,N,11316.9411,E,5.60,192.66,010316,,,D*6D
$GPRMC,092950.000,A,2308.4550,N,11316.9409,E,9.17,192.14,010316,,,D*64
$GPRMC,092951.000,A,2308.4521,N,11316.9405,E,10.46,191.14,010316,,,D*50
$GPRMC,092952.000,A,2308.4490,N,11316.9403,E,10.67,190.49,010316,,,D*54
$GPRMC,092953.000,A,2308.4461,N,11316.9396,E,9.76,193.25,010316,,,D*61
$GPRMC,092954.000,A,2308.4430,N,11316.9392,E,10.63,196.28,010316,,,D*52
$GPRMC,092955.000,A,2308.4398,N,11316.9385,E,10.87,196.36,010316,,,D*55
$GPRMC,092956.000,A,2308.4364,N,11316.9381,E,12.13,187.90,010316,,,D*52
$GPRMC,092957.000,A,2308.4324,N,11316.9382,E,13.33,188.60,010316,,,D*57
$GPRMC,092958.000,A,2308.4288,N,11316.9393,E,12.99,173.63,010316,,,D*59
$GPRMC,092959.000,A,2308.4255,N,11316.9396,E,11.02,173.84,010316,,,D*55
$GPRMC,093000.000,A,2308.4226,N,11316.9398,E,9.49,175.48,010316,,,D*6B
$GPRMC,093001.000,A,2308.4197,N,11316.9397,E,8.98,177.92,010316,,,D*64
$GPRMC,093002.000,A,2308.4169,N,11316.9389,E,8.95,191.42,010316,,,D*61
$GPRMC,093003.000,A,2308.4144,N,11316.9386,E,8.64,191.20,010316,,,D*6A
$GPRMC,093004.000,A,2308.4119,N,11316.9382,E,7.53,190.66,010316,,,D*69
$GPRMC,093005.000,A,2308.4098,N,11316.9386,E,6.83,189.96,010316,,,D*6F
$GPRMC,093006.000,A,2308.4079,N,11316.9388,E,6.63,188.19,010316,,,D*65
$GPRMC,093007.000,A,2308.4060,N,11316.9394,E,6.65,185.61,010316,,,D*65
$GPRMC,093008.000,A,2308.4037,N,11316.9416,E,7.29,183.31,010316,,,D*6F
$GPRMC,093009.000,A,2308.4012,N,11316.9402,E,4.85,181.82,010316,,,D*63
$GPRMC,093010.000,A,2308.4008,N,11316.9363,E,9.23,274.72,010316,,,D*67
$GPRMC,093011.000,A,2308.3995,N,11316.9329,E,9.80,273.46,010316,,,D*6B
$GPRMC,093012.000,A,2308.3977,N,11316.9308,E,6.09,271.17,010316,,,D*6F
$GPRMC,093013.000,A,2308.3976,N,11316.9287,E,6.65,268.31,010316,,,D*6F
$GPRMC,093014.000,A,2308.3979,N,11316.9248,E,10.03,270.51,010316,,,D*5C
$GPRMC,093015.000,A,2308.4015,N,11316.9204,E,10.97,270.92,010316,,,D*53
$GPRMC,093016.000,A,2308.4015,N,11316.9158,E,11.79,254.39,010316,,,D*5C
$GPRMC,093017.000,A,2308.4001,N,11316.9116,E,11.28,242.84,010316,,,D*57
$GPRMC,093018.000,A,2308.3982,N,11316.9083,E,10.51,230.11,010316,,,D*56
$GPRMC,093019.000,A,2308.3956,N,11316.9063,E,11.42,218.70,010316,,,D*5E
$GPRMC,093020.000,A,2308.3923,N,11316.9041,E,13.00,207.03,010316,,,D*58
$GPRMC,093021.000,A,2308.3883,N,11316.9026,E,13.64,196.61,010316,,,D*5E
$GPRMC,093022.000,A,2308.3844,N,11316.9015,E,13.61,194.65,010316,,,D*55
$GPRMC,093023.000,A,2308.3805,N,11316.9006,E,13.38,194.93,010316,,,D*56
$GPRMC,093024.000,A,2308.3768,N,11316.8997,E,13.43,197.76,010316,,,D*51
$GPRMC,093025.000,A,2308.3734,N,11316.8988,E,13.00,198.05,010316,,,D*5B
$GPRMC,093026.000,A,2308.3701,N,11316.8976,E,12.33,197.78,010316,,,D*5B
$GPRMC,093027.000,A,2308.3670,N,11316.8966,E,11.33,194.71,010316,,,D*55
$GPRMC,093028.000,A,2308.3639,N,11316.8960,E,10.69,193.83,010316,,,D*55
$GPRMC,093029.000,A,2308.3609,N,11316.8953,E,10.64,191.79,010316,,,D*5D
$GPRMC,093030.000,A,2308.3581,N,11316.8943,E,10.47,191.70,010316,,,D*5F
$GPRMC,093031.000,A,2308.3555,N,11316.8930,E,9.94,201.39,010316,,,D*62
$GPRMC,093032.000,A,2308.3531,N,11316.8913,E,10.63,215.30,010316,,,D*5E
$GPRMC,093033.000,A,2308.3511,N,11316.8886,E,11.30,232.98,010316,,,D*50
$GPRMC,093034.000,A,2308.3498,N,11316.8850,E,12.55,254.91,010316,,,D*55
$GPRMC,093035.000,A,2308.3495,N,11316.8805,E,13.99,273.36,010316,,,D*50
$GPRMC,093036.000,A,2308.3502,N,11316.8758,E,15.53,282.69,010316,,,D*5F
$GPRMC,093037.000,A,2308.3513,N,11316.8711,E,14.89,283.87,010316,,,D*54
$GPRMC,093038.000,A,2308.3525,N,11316.8666,E,14.68,285.51,010316,,,D*5D
$GPRMC,093039.000,A,2308.3538,N,11316.8621,E,15.45,286.34,010316,,,D*5D
$GPRMC,093040.000,A,2308.3553,N,11316.8575,E,16.09,288.77,010316,,,D*5E
$GPRMC,093041.000,A,2308.3570,N,11316.8527,E,17.06,290.31,010316,,,D*5C
$GPRMC,093042.000,A,2308.3589,N,11316.8476,E,17.08,291.69,010316,,,D*5E
$GPRMC,093043.000,A,2308.3609,N,11316.8418,E,16.86,291.00,010316,,,D*54
$GPRMC,093044.000,A,2308.3628,N,11316.8370,E,16.70,289.81,010316,,,D*50
$GPRMC,093045.000,A,2308.3643,N,11316.8323,E,16.74,288.05,010316,,,D*53
$GPRMC,093046.000,A,2308.3656,N,11316.8274,E,18.53,284.94,010316,,,D*58
$GPRMC,093047.000,A,2308.3666,N,11316.8218,E,19.59,282.55,010316,,,D*50
$GPRMC,093048.000,A,2308.3676,N,11316.8156,E,20.44,281.98,010316,,,D*53
$GPRMC,093049.000,A,2308.3690,N,11316.8089,E,21.61,281.35,010316,,,D*58
$GPRMC,093050.000,A,2308.3710,N,11316.8023,E,23.83,281.37,010316,,,D*55
$GPRMC,093051.000,A,2308.3734,N,11316.7956,E,24.22,282.07,010316,,,D*5A
$GPRMC,093052.000,A,2308.3760,N,11316.7885,E,26.97,290.23,010316,,,D*5E
$GPRMC,093053.000,A,2308.3787,N,11316.7811,E,28.09,290.01,010316,,,D*52
$GPRMC,093054.000,A,2308.3816,N,11316.7731,E,30.39,291.24,010316,,,D*53
$GPRMC,093055.000,A,2308.3847,N,11316.7639,E,33.13,292.10,010316,,,D*50
$GPRMC,093056.000,A,2308.3881,N,11316.7558,E,30.90,293.49,010316,,,D*58
$GPRMC,093057.000,A,2308.3910,N,11316.7472,E,30.89,290.54,010316,,,D*5E
$GPRMC,093058.000,A,2308.3941,N,11316.7384,E,32.23,291.21,010316,,,D*5A
$GPRMC,093059.000,A,2308.3975,N,11316.7294,E,32.40,292.70,010316,,,D*5E
$GPRMC,093100.000,A,2308.4009,N,11316.7201,E,33.36,291.45,010316,,,D*5F
$GPRMC,093101.000,A,2308.4040,N,11316.7112,E,32.40,291.86,010316,,,D*5D
$GPRMC,093102.000,A,2308.4069,N,11316.7025,E,30.95,288.02,010316,,,D*5E
$GPRMC,093103.000,A,2308.4093,N,11316.6940,E,31.02,284.57,010316,,,D*52
$GPRMC,093104.000,A,2308.4115,N,11316.6852,E,31.07,283.26,010316,,,D*5C
$GPRMC,093105.000,A,2308.4137,N,11316.6763,E,30.81,283.21,010316,,,D*58
$GPRMC,093106.000,A,2308.4168,N,11316.6673,E,31.34,288.95,010316,,,D*5A
$GPRMC,093107.000,A,2308.4200,N,11316.6579,E,33.38,291.92,010316,,,D*5E
$GPRMC,093108.000,A,2308.4233,N,11316.6483,E,32.11,292.62,010316,,,D*53
$GPRMC,093109.000,A,2308.4269,N,11316.6399,E,32.39,293.73,010316,,,D*5A
$GPRMC,093110.000,A,2308.4306,N,11316.6309,E,32.80,294.12,010316,,,D*51
$GPRMC,093111.000,A,2308.4347,N,11316.6219,E,32.91,295.79,010316,,,D*59
$GPRMC,093112.000,A,2308.4388,N,11316.6132,E,29.99,296.11,010316,,,D*5C
$GPRMC,093113.000,A,2308.4427,N,11316.6042,E,29.80,293.63,010316,,,D*51
$GPRMC,093114.000,A,2308.4466,N,11316.5962,E,26.94,298.91,010316,,,D*57
$GPRMC,093115.000,A,2308.4493,N,11316.5884,E,26.07,293.24,010316,,,D*5A
$GPRMC,093116.000,A,2308.4526,N,11316.5818,E,24.75,289.93,010316,,,D*53
$GPRMC,093117.000,A,2308.4553,N,11316.5750,E,22.33,290.71,010316,,,D*53
$GPRMC,093118.000,A,2308.4580,N,11316.5691,E,19.92,291.50,010316,,,D*5F
$GPRMC,093119.000,A,2308.4610,N,11316.5638,E,19.04,292.67,010316,,,D*5F
$GPRMC,093120.000,A,2308.4625,N,11316.5588,E,17.45,292.69,010316,,,D*5E
$GPRMC,093121.000,A,2308.4645,N,11316.5539,E,15.96,294.39,010316,,,D*5C
$GPRMC,093122.000,A,2308.4668,N,11316.5484,E,15.12,295.29,010316,,,D*5B
$GPRMC,093123.000,A,2308.4688,N,11316.5437,E,16.35,294.46,010316,,,D*52
$GPRMC,093124.000,A,2308.4710,N,11316.5396,E,17.55,293.28,010316,,,D*51
$GPRMC,093125.000,A,2308.4731,N,11316.5351,E,17.25,293.94,010316,,,D*58
$GPRMC,093126.000,A,2308.4752,N,11316.5308,E,14.25,294.15,010316,,,D*5F
$GPRMC,093127.000,A,2308.4767,N,11316.5273,E,10.15,294.17,010316,,,D*50
$GPRMC,093128.000,A,2308.4777,N,11316.5250,E,5.99,294.23,010316,,,D*68
$GPRMC,093129.000,A,2308.4781,N,11316.5240,E,0.19,294.39,010316,,,D*67
$GPRMC,093130.000,A,2308.4783,N,11316.5240,E,0.11,294.28,010316,,,D*65
$GPRMC,093131.000,A,2308.4782,N,11316.5242,E,0.10,294.16,010316,,,D*6B
$GPRMC,093132.000,A,2308.4780,N,11316.5245,E,0.09,294.24,010316,,,D*64
$GPRMC,093133.000,A,2308.4779,N,11316.5248,E,0.05,294.30,010316,,,D*67
$GPRMC,093134.000,A,2308.4778,N,11316.5249,E,0.00,294.30,010316,,,D*65
$GPRMC,093135.000,A,2308.4778,N,11316.5249,E,0.00,294.30,010316,,,D*64
$GPRMC,093136.000,A,2308.4778,N,11316.5249,E,0.00,294.30,010316,,,D*67
$GPRMC,093137.000,A,2308.4778,N,11316.5249,E,0.00,294.30,010316,,,D*66
$GPRMC,093138.000,A,2308.4778,N,11316.5249,E,0.00,294.30,010316,,,D*69
$GPRMC,093139.000,A,2308.4778,N,11316.5249,E,0.00,294.30,010316,,,D*68
$GPRMC,093140.000,A,2308.4778,N,11316.5249,E,0.00,294.30,010316,,,D*66
$GPRMC,093141.000,A,2308.4778,N,11316.5249,E,0.00,294.30,010316,,,D*67
$GPRMC,093142.000,A,2308.4778,N,11316.5249,E,0.00,294.30,010316,,,D*64
$GPRMC,093143.000,A,2308.4778,N,11316.5249,E,0.00,294.30,010316,,,D*65
$GPRMC,093144.000,A,2308.4778,N,11316.5249,E,0.00,294.30,010316,,,D*62
$GPRMC,093145.000,A,2308.4778,N,11316.5249,E,0.00,294.30,010316,,,D*63
$GPRMC,093146.000,A,2308.4778,N,11316.5249,E,0.00,294.30,010316,,,D*60
$GPRMC,093147.000,A,2308.4778,N,11316.5249,E,0.00,294.30,010316,,,D*61
$GPRMC,093148.000,A,2308.4778,N,11316.5249,E,0.00,294.30,010316,,,D*6E
$GPRMC,093149.000,A,2308.4778,N,11316.5249,E,0.00,294.30,010316,,,D*6F
$GPRMC,093150.000,A,2308.4778,N,11316.5249,E,0.00,294.30,010316,,,D*67
$GPRMC,093151.000,A,2308.4778,N,11316.5249,E,0.00,294.30,010316,,,D*66
$GPRMC,093152.000,A,2308.4778,N,11316.5249,E,0.00,294.30,010316,,,D*65
$GPRMC,093153.000,A,2308.4781,N,11316.5245,E,3.06,310.28,010316,,,D*6F
$GPRMC,093154.000,A,2308.4788,N,11316.5235,E,3.68,302.16,010316,,,D*60
$GPRMC,093155.000,A,2308.4802,N,11316.5221,E,3.71,295.48,010316,,,D*65
$GPRMC,093156.000,A,2308.4813,N,11316.5211,E,4.61,293.57,010316,,,D*6B
$GPRMC,093157.000,A,2308.4820,N,11316.5200,E,5.62,294.56,010316,,,D*6E
$GPRMC,093158.000,A,2308.4827,N,11316.5185,E,5.57,296.60,010316,,,D*69
$GPRMC,093159.000,A,2308.4832,N,11316.5171,E,3.91,297.15,010316,,,D*68
$GPRMC,093200.000,A,2308.4836,N,11316.5163,E,2.31,299.20,010316,,,D*63
$GPRMC,093201.000,A,2308.4839,N,11316.5160,E,1.82,308.09,010316,,,D*67
$GPRMC,093202.000,A,2308.4843,N,11316.5157,E,2.09,313.72,010316,,,D*6B
$GPRMC,093203.000,A,2308.4846,N,11316.5154,E,1.27,311.60,010316,,,D*62
$GPRMC,093204.000,A,2308.4847,N,11316.5152,E,1.02,310.89,010316,,,D*63
$GPRMC,093205.000,A,2308.4849,N,11316.5150,E,1.08,316.93,010316,,,D*69
$GPRMC,093206.000,A,2308.4857,N,11316.5139,E,2.89,316.90,010316,,,D*63
$GPRMC,093207.000,A,2308.4863,N,11316.5126,E,4.49,313.87,010316,,,D*62
$GPRMC,093208.000,A,2308.4872,N,11316.5114,E,5.50,316.00,010316,,,D*6F
$GPRMC,093209.000,A,2308.4883,N,11316.5098,E,6.56,307.88,010316,,,D*60
$GPRMC,093210.000,A,2308.4890,N,11316.5067,E,7.89,298.94,010316,,,D*63
$GPRMC,093211.000,A,2308.4901,N,11316.5046,E,8.46,297.57,010316,,,D*64
$GPRMC,093212.000,A,2308.4912,N,11316.5022,E,9.19,299.81,010316,,,D*69
$GPRMC,093213.000,A,2308.4924,N,11316.4996,E,9.82,293.90,010316,,,D*62
$GPRMC,093214.000,A,2308.4933,N,11316.4973,E,8.57,293.86,010316,,,D*66
$GPRMC,093215.000,A,2308.4943,N,11316.4953,E,7.71,295.09,010316,,,D*68
$GPRMC,093216.000,A,2308.4951,N,11316.4935,E,6.94,294.08,010316,,,D*62
$GPRMC,093217.000,A,2308.4958,N,11316.4924,E,3.72,294.36,010316,,,D*6A
$GPRMC,093218.000,A,2308.4961,N,11316.4915,E,2.26,294.36,010316,,,D*6D
$GPRMC,093219.000,A,2308.4962,N,11316.4910,E,0.12,294.36,010316,,,D*6F
$GPRMC,093220.000,A,2308.4963,N,11316.4901,E,0.07,294.23,010316,,,D*64
$GPRMC,093221.000,A,2308.4962,N,11316.4898,E,0.06,294.34,010316,,,D*62
$GPRMC,093222.000,A,2308.4962,N,11316.4896,E,0.05,294.30,010316,,,D*68
$GPRMC,093223.000,A,2308.4963,N,11316.4895,E,0.02,294.29,010316,,,D*64
$GPRMC,093224.000,A,2308.4963,N,11316.4895,E,0.00,294.29,010316,,,D*61
$GPRMC,093225.000,A,2308.4963,N,11316.4895,E,0.00,294.29,010316,,,D*60
$GPRMC,093226.000,A,2308.4963,N,11316.4895,E,0.00,294.29,010316,,,D*63
$GPRMC,093227.000,A,2308.4963,N,11316.4895,E,0.00,294.29,010316,,,D*62
$GPRMC,093228.000,A,2308.4963,N,11316.4895,E,0.00,294.29,010316,,,D*6D
$GPRMC,093229.000,A,2308.4963,N,11316.4895,E,0.00,294.29,010316,,,D*6C
$GPRMC,093230.000,A,2308.4963,N,11316.4895,E,0.00,294.29,010316,,,D*64
$GPRMC,093231.000,A,2308.4963,N,11316.4895,E,0.00,294.29,010316,,,D*65
$GPRMC,093232.000,A,2308.4963,N,11316.4895,E,0.00,294.29,010316,,,D*66
$GPRMC,093233.000,A,2308.4963,N,11316.4895,E,0.00,294.29,010316,,,D*67
$GPRMC,093234.000,A,2308.4963,N,11316.4895,E,0.00,294.29,010316,,,D*60
$GPRMC,093235.000,A,2308.4963,N,11316.4895,E,0.00,294.29,010316,,,D*61
$GPRMC,093236.000,A,2308.4963,N,11316.4895,E,0.00,294.29,010316,,,D*62
$GPRMC,093237.000,A,2308.4963,N,11316.4895,E,0.00,294.29,010316,,,D*63
$GPRMC,093238.000,A,2308.4963,N,11316.4895,E,0.00,294.29,010316,,,D*6C
$GPRMC,093239.000,A,2308.4963,N,11316.4895,E,0.00,294.29,010316,,,D*6D
$GPRMC,093240.000,A,2308.4963,N,11316.4895,E,0.00,294.29,010316,,,D*63
$GPRMC,093241.000,A,2308.4963,N,11316.4895,E,0.00,294.29,010316,,,D*62
$GPRMC,093242.000,A,2308.4963,N,11316.4895,E,0.00,294.29,010316,,,D*61
$GPRMC,093243.000,A,2308.4963,N,11316.4895,E,0.00,294.29,010316,,,D*60
$GPRMC,093244.000,A,2308.4963,N,11316.4895,E,0.00,294.29,010316,,,D*67
$GPRMC,093245.000,A,2308.4963,N,11316.4895,E,0.00,294.29,010316,,,D*66
$GPRMC,093246.000,A,2308.4963,N,11316.4895,E,0.00,294.29,010316,,,D*65
$GPRMC,093247.000,A,2308.4963,N,11316.4895,E,0.00,294.29,010316,,,D*64
$GPRMC,093248.000,A,2308.4963,N,11316.4895,E,0.00,294.29,010316,,,D*6B
$GPRMC,093249.000,A,2308.4963,N,11316.4894,E,0.00,294.29,010316,,,D*6B
